[
    {
      "n_id": 1,
      "n_name": "Garodia International Centre for Learning Mumbai",
      "n_addr": "Garodia International Centre for Learning Mumbai, 55, 90 Feet Rd, Garodia Nagar, Ghatkopar East, Mumbai, Maharashtra 400077",
      "Latitude": 19.0748994,
      "Longitude": 72.9060813,
      "n_type": "School"
    },
    {
      "n_id": 2,
      "n_name": "The Universal School, Ghatkopar",
      "n_addr": "The Universal School, Ghatkopar, Plot No, 17, Tilak Rd, near Lion’s Garden, Sindhu Wadi, Ghatkopar East, Mumbai, Maharashtra 400077",
      "Latitude": 19.0759938,
      "Longitude": 72.9052142,
      "n_type": "School"
    },
    {
      "n_id": 3,
      "n_name": "SHRI INDRADEO SINGH INTERNATIONAL SCHOOL",
      "n_addr": "SHRI INDRADEO SINGH INTERNATIONAL SCHOOL, 3WP5+XRX, Laxminarayan Ln, opp. Ghatkopar Station, Shival Nagar, CGS Colony, Ghatkopar West, Mumbai, Maharashtra 400086",
      "Latitude": 19.0874846,
      "Longitude": 72.9096172,
      "n_type": "School"
    },
    {
      "n_id": 4,
      "n_name": "S.g.k.m. International School",
      "n_addr": "S.g.k.m. International School, Vaibhav, Tilak Rd, Ghatkopar, Sindhu Wadi, Ghatkopar East, Mumbai, Maharashtra 400077",
      "Latitude": 19.0758983,
      "Longitude": 72.9051037,
      "n_type": "School"
    },
    {
      "n_id": 5,
      "n_name": "The Somaiya School",
      "n_addr": "The Somaiya School, Vidyanagar, Vidya Vihar East, Ghatkopar East, Mumbai, Maharashtra 400077.",
      "Latitude": 19.0745163,
      "Longitude": 72.9002375,
      "n_type": "School"
    },
    {
      "n_id": 6,
      "n_name": "R.N. Gandhi High School",
      "n_addr": "R.N. Gandhi High School, RN Gandhi Rd, ONGC Colony, Rajawadi Colony, Vidyavihar, Mumbai, Maharashtra 400077",
      "Latitude": 19.0776046,
      "Longitude": 72.8992542,
      "n_type": "School"
    },
    {
      "n_id": 7,
      "n_name": "PVG Vidya Bhawan School",
      "n_addr": "PVG Vidya Bhawan School, CTS-218, Barrister Nath Pai Nagar, GHATKOPAR (E, Mumbai, Maharashtra 400077",
      "Latitude": 19.0724469,
      "Longitude": 72.9065825,
      "n_type": "School"
    },
    {
      "n_id": 8,
      "n_name": "Ramji Assar Vidyalaya",
      "n_addr": "Ramji Assar Vidyalaya, 3WJ3+QQ7, M G Road, Mahatma Gandhi Rd, Mumbai, Maharashtra 400077",
      "Latitude": 19.0819036,
      "Longitude": 72.9044067,
      "n_type": "School"
    },
    {
      "n_id": 9,
      "n_name": "RUSHIKUL GURUKUL ENGLISH MEDIUM SCHOOL",
      "n_addr": "RUSHIKUL GURUKUL ENGLISH MEDIUM SCHOOL, Tilak Rd V C GURUKUL building, Ghatkopar East, Mumbai, Maharashtra 400077",
      "Latitude": 19.08113,
      "Longitude": 72.9072187,
      "n_type": "School"
    },
    {
      "n_id": 10,
      "n_name": "D J Doshi Gurukul English Medium High School and Junior College of Commerce",
      "n_addr": "D J Doshi Gurukul English Medium High School and Junior College of Commerce, Tilak Road, off, Derasar Ln, Ghatkopar East, Mumbai, Maharashtra 400077",
      "Latitude": 19.0811613,
      "Longitude": 72.9071909,
      "n_type": "School"
    },
    {
      "n_id": 11,
      "n_name": "Mumbai Public School CBSE Rajawadi",
      "n_addr": "Mumbai Public School CBSE Rajawadi, 3VHX+5QG, RN Gandhi Rd, ONGC Colony, Rajawadi Colony, Vidyavihar, Mumbai, Maharashtra 400077",
      "Latitude": 19.0779278,
      "Longitude": 72.8994661,
      "n_type": "School"
    },
    {
      "n_id": 12,
      "n_name": "Peppyhearts Preschool +10 years",
      "n_addr": "Peppyhearts Preschool +10 years, Satyam Shopping Centre, C Wing Shop No. 11 to, 15, Mahatma Gandhi Rd, Ghatkopar East, Mumbai, Maharashtra 400077",
      "Latitude": 19.0824497,
      "Longitude": 72.9040907,
      "n_type": "School"
    },
    {
      "n_id": 13,
      "n_name": "Modern English Medium School",
      "n_addr": "Modern English Medium School, 3WC8+F6F, Kamraj Nagar, Eastern Express Highway, Ghatkopar East, Mumbai, Maharashtra 400077",
      "Latitude": 19.071177,
      "Longitude": 72.915534,
      "n_type": "School"
    },
    {
      "n_id": 14,
      "n_name": "Holy Family High School",
      "n_addr": "Holy Family High School, 3WC4+FF2, Pestom Sagar Rd Number 4, Chembur West, Pestom Sagar Colony, Ghatkopar East, Mumbai, Maharashtra 400089",
      "Latitude": 19.07114,
      "Longitude": 72.9061494,
      "n_type": "School"
    },
    {
      "n_id": 15,
      "n_name": "K.V.K Ghatkopar Sarvajanik School",
      "n_addr": "K.V.K Ghatkopar Sarvajanik School, 3WV5+PXR KVK Sarvajanik Education Society School, Sainath Nagar Rd, Sainath Nagar, Indira Nagar, Ghatkopar West, Mumbai, Maharashtra 400086",
      "Latitude": 19.0944555,
      "Longitude": 72.9100804,
      "n_type": "School"
    },
    {
      "n_id": 16,
      "n_name": "Little Star English High School",
      "n_addr": "Little Star English High School, 27, Lal Bahadur Shastri Marg, Chirag Nagar, Ghatkopar West, Mumbai, Maharashtra 400086",
      "Latitude": 19.087859,
      "Longitude": 72.8987492,
      "n_type": "School"
    },
    {
      "n_id": 17,
      "n_name": "Dominic Savio Vidyalaya",
      "n_addr": "Dominic Savio Vidyalaya, 3WQ7+RRP, Gauri Shankar Wadi No. 2, Savitribai Phule Nagar, Pant Nagar, Ghatkopar East, Mumbai, Maharashtra 400075",
      "Latitude": 19.0895944,
      "Longitude": 72.9145679,
      "n_type": "School"
    },
    {
      "n_id": 18,
      "n_name": "Subedar English High School & Junior college of commerce",
      "n_addr": "Subedar English High School & Junior college of commerce, Azad Nagar, Lal Bahadur Shastri Marg, Ghatkopar, Mumbai, Maharashtra 400086",
      "Latitude": 19.0914689,
      "Longitude": 72.8981186,
      "n_type": "School"
    },
    {
      "n_id": 19,
      "n_name": "Suyash Vidyalaya",
      "n_addr": "Suyash Vidyalaya, Near aacharya atre ground, Pant Nagar, Ghatkopar East, Mumbai, Maharashtra 400075",
      "Latitude": 19.0858279,
      "Longitude": 72.9140609,
      "n_type": "School"
    },
    {
      "n_id": 20,
      "n_name": "Ramai High School",
      "n_addr": "Ramai High School, No.4, Ramabai Ambedkar Nagar Rd, Ramabai Nagar, Ghatkopar East, Mumbai, Maharashtra 400075",
      "Latitude": 19.0759617,
      "Longitude": 72.9173294,
      "n_type": "School"
    },
    {
      "n_id": 21,
      "n_name": "P G Garodia School (ICSE)",
      "n_addr": "P G Garodia School (ICSE), 153, Garodia Nagar, Ghatkopar East, Mumbai, Maharashtra 400077",
      "Latitude": 19.0751935,
      "Longitude": 72.9094399,
      "n_type": "School"
    },
    {
      "n_id": 22,
      "n_name": "Sheth Virchand Dhanji Secondary English Medium School",
      "n_addr": "Sheth Virchand Dhanji Secondary English Medium School, 3WM5+2CP, Hingwala Ln, Saibaba Nagar, Pant Nagar, Ghatkopar East, Mumbai, Maharashtra 400077",
      "Latitude": 19.0825862,
      "Longitude": 72.9085779,
      "n_type": "School"
    },
    {
      "n_id": 23,
      "n_name": "D.B PAWAR ENGLISH SCHOOL",
      "n_addr": "D.B PAWAR ENGLISH SCHOOL, Pawar niwas room no. 3 D.B.Pawar chouk, Ramabai Ambedkar Nagar, Ghatkopar East, Mumbai, Maharashtra 400075",
      "Latitude": 19.0764164,
      "Longitude": 72.9149994,
      "n_type": "School"
    },
    {
      "n_id": 24,
      "n_name": "Maheshwari Vidyalaya & Jr. College",
      "n_addr": "Maheshwari Vidyalaya & Jr. College, S.N, Maneklal Mehta Rd, Kasturi Park, Maneklal Estate, Ghatkopar West, Mumbai, Maharashtra 400086",
      "Latitude": 19.0896901,
      "Longitude": 72.9029072,
      "n_type": "School"
    },
    {
      "n_id": 25,
      "n_name": "The Sarvodaya Anantya School",
      "n_addr": "The Sarvodaya Anantya School, CTS 1811 Off LBS Road, Hirachand Desai Rd, Ghatkopar West, Mumbai, Maharashtra 400086",
      "Latitude": 19.0908536,
      "Longitude": 72.9073856,
      "n_type": "School"
    },
    {
      "n_id": 26,
      "n_name": "Smt. S.T. Mehta School",
      "n_addr": "Smt. S.T. Mehta School, 3WM2+CH6, Cama Lane, Ghatkopar West, Mumbai, Maharashtra 400086",
      "Latitude": 19.0835482,
      "Longitude": 72.901397,
      "n_type": "School"
    },
    {
      "n_id": 27,
      "n_name": "Saraswati Vidya Mandir",
      "n_addr": "Saraswati Vidya Mandir, Behind Jagruti Nagar Metro Station, Andheri Ghatkopar Link Rd, Bhatwadi, Ghatkopar West, Mumbai, Maharashtra 400084",
      "Latitude": 19.0926147,
      "Longitude": 72.9026911,
      "n_type": "School"
    },
    {
      "n_id": 28,
      "n_name": "Fatima High School",
      "n_addr": "Fatima High School, 3VJX+XCF, Vidyavihar, Mumbai, Maharashtra 400086",
      "Latitude": 19.082384,
      "Longitude": 72.8984377,
      "n_type": "School"
    },
    {
      "n_id": 29,
      "n_name": "Smt. R.N. Sheth English Girls Primary School",
      "n_addr": "Smt. R.N. Sheth English Girls Primary School, 3WM2+9HF New S.N.D.T School, Camalane, Ghatkopar, Vidyavihar, Mumbai, Maharashtra 400086",
      "Latitude": 19.0834375,
      "Longitude": 72.9014375,
      "n_type": "School"
    },
    {
      "n_id": 30,
      "n_name": "Dnyanprakash Vidyalay",
      "n_addr": "Dnyanprakash Vidyala, 3WV2+W7H, Ramchandra B Kadam Marg, Bhatwadi, Barve Nagar, Ghatkopar West, Mumbai, Maharashtra 400084",
      "Latitude": 19.094804,
      "Longitude": 72.9007292,
      "n_type": "School"
    },
    {
      "n_id": 31,
      "n_name": "St. Mary's Malankara High School",
      "n_addr": "St. Mary's Malankara High School, 3VXV+8C3, Andheri - Ghatkopar Rd, Asalfa Metro Station, Ghatkopar (W), Pereira Wadi, Asalpha, Mumbai, Maharashtra 400072",
      "Latitude": 19.0982578,
      "Longitude": 72.8935412,
      "n_type": "School"
    },
    {
      "n_id": 32,
      "n_name": "Little Flower English High School",
      "n_addr": "Little Flower English High School, 4W27+75R, Amrut Nagar Rd, Ram Nagar, Amrut Nagar, Ghatkopar West, Mumbai, Maharashtra 400086",
      "Latitude": 19.1007275,
      "Longitude": 72.9128929,
      "n_type": "School"
    },
    {
      "n_id": 33,
      "n_name": "SIES (DR. APJ ABDUL KALAM) MEMORIAL HIGH SCHOOL",
      "n_addr": "SIES (DR. APJ ABDUL KALAM) MEMORIAL HIGH SCHOOL, PLOT NO 28, 29, Rifle Range Rd, Ghatkopar, Gangawadi, Ghatkopar West, W, Mumbai, Maharashtra 400086",
      "Latitude": 19.0893148,
      "Longitude": 72.9078057,
      "n_type": "School"
    },
    {
      "n_id": 34,
      "n_name": "Meera's High School",
      "n_addr": "Meera's High School, A-21, Vikhroli Park Site Rd Number 1, near Bank Of India, Amrut Nagar, Ghatkopar West, Mumbai, Maharashtra 400086",
      "Latitude": 19.1033441,
      "Longitude": 72.911844,
      "n_type": "School"
    },
    {
      "n_id": 35,
      "n_name": "Ramji Vidyalaya Group Of Schools & Laxmichand Golwala College Of Commerce & Economics",
      "n_addr": "Ramji Vidyalaya Group Of Schools & Laxmichand Golwala College Of Commerce & Economics, Haveli Apartment, M G RD, Mahatma Gandhi Rd, Rajawadi Colony, Ghatkopar East, Mumbai, Maharashtra 400077",
      "Latitude": 19.0817817,
      "Longitude": 72.9043293,
      "n_type": "School"
    },
    {
      "n_id": 36,
      "n_name": "Bharathi Vidya Mandir School And Junior College",
      "n_addr": "Bharathi Vidya Mandir School And Junior College, 3WP4+VW6, Sagar Bonanza,J V Road, Station Road, Kapol wadi, Pant Nagar, Ghatkopar West, Mumbai, Maharashtra 400086",
      "Latitude": 19.0871516,
      "Longitude": 72.907269,
      "n_type": "School"
    },
    {
      "n_id": 37,
      "n_name": "Universal High School Chembur",
      "n_addr": "Universal High School Chembur, Universal High school Road , J.K, Janardhan Krishna Karmalkar Marg, Tilak Nagar, Chembur, Mumbai, Maharashtra 400089",
      "Latitude": 19.0696261,
      "Longitude": 72.8997013,
      "n_type": "School"
    },
    {
      "n_id": 38,
      "n_name": "Swami Shyanananda High School & Junior College",
      "n_addr": "Swami Shyanananda High School & Junior College, Kasturi Park, Maneklal Estate, Ghatkopar West, Mumbai, Maharashtra 400086",
      "Latitude": 19.0896446,
      "Longitude": 72.9029046,
      "n_type": "School"
    },
    {
      "n_id": 39,
      "n_name": "Parakh Hospital",
      "n_addr": "Parakh Hospital, Khokani Lane, Opp. Ghatkopar Railway Station, Ghatkopar East, Mumbai, Maharashtra 400077",
      "Latitude": 19.0843934,
      "Longitude": 72.9077054,
      "n_type": "Hospital"
    },
    {
      "n_id": 40,
      "n_name": "Vivek Hospital",
      "n_addr": "Vivek Hospital, Sai Darshan, Asalfa, Ramchandra B Kadam Marg, Opposite Saraswat Bank, Ghatkopar West, Mumbai, Maharashtra 400084",
      "Latitude": 19.094046,
      "Longitude": 72.900018,
      "n_type": "Hospital"
    },
    {
      "n_id": 41,
      "n_name": "Sarvodaya Hospital",
      "n_addr": "Sarvodaya Hospital, Lal Bahadur Shastri Marg, Gandhi Nagar, Kirti Vihar, Ghatkopar West, Mumbai, Maharashtra 400086",
      "Latitude": 19.0903959,
      "Longitude": 72.907218,
      "n_type": "Hospital"
    },
    {
      "n_id": 42,
      "n_name": "Vivek Hospital",
      "n_addr": "Vivek Hospital, Sai Darshan, Asalfa, Ramchandra B Kadam Marg, Opposite Saraswat Bank, Ghatkopar West, Mumbai, Maharashtra 400084",
      "Latitude": 19.094046,
      "Longitude": 72.900018,
      "n_type": "Hospital"
    },
    {
      "n_id": 43,
      "n_name": "Nulife Hospital",
      "n_addr": "Nulife Hospital, Harekrishna Building, Jeevdaya Hospital, A1, Harekrishna Building, 1st Floor, Near Telephone Exchange, A1, Harekrishna Bldg, Lal Bahadur Shastri Marg, Jivdaya Lane, Ghatkopar West, Mumbai, Maharashtra 400086",
      "Latitude": 19.0881416,
      "Longitude": 72.9050137,
      "n_type": "Hospital"
    },
    {
      "n_id": 44,
      "n_name": "Disha Hospital",
      "n_addr": "Disha Hospital, Om Sri Sai Dham CHS, Andheri - Ghatkopar Road Asalpha, Jambhulpada, Ghatkopar West, Mumbai, Maharashtra 400084",
      "Latitude": 19.0938114,
      "Longitude": 72.8984998,
      "n_type": "Hospital"
    },
    {
      "n_id": 45,
      "n_name": "Zynova Shalby Hospital",
      "n_addr": "Zynova Shalby Hospital, Acme Elanza, 1900-1917, Gandhi Nagar, Kirti Vihar, Ghatkopar West, Mumbai, Maharashtra 400086",
      "Latitude": 19.0886469,
      "Longitude": 72.9064779,
      "n_type": "Hospital"
    },
    {
      "n_id": 46,
      "n_name": "Vedant Central Hospital",
      "n_addr": "Vedant Central Hospital, Pasaydan Bhavan, R.B. Kadam Marg, Near Jagruti Nagar Metro Station Wagadwala, Jivdaya Ln, next to Jain Temple in, Ghatkopar West, Mumbai, Maharashtra 400084",
      "Latitude": 19.0928736,
      "Longitude": 72.9037671,
      "n_type": "Hospital"
    },
    {
      "n_id": 47,
      "n_name": "Sukh Shanti Hospital- ICU, Physician, Cardiologist and Diabetologist in Ghatkopar, Hospital In Ghatkopar",
      "n_addr": "Sukh Shanti Hospital- ICU, Physician, Cardiologist and Diabetologist in Ghatkopar, Hospital In Ghatkopar, 1st floor, Vikram Apartments, Kasturi Park, Maneklal Estate, Ghatkopar West, Mumbai, Maharashtra 400086",
      "Latitude": 19.0878475,
      "Longitude": 72.9022979,
      "n_type": "Hospital"
    },
    {
      "n_id": 48,
      "n_name": "Khus-Hal Hospital",
      "n_addr": "Khus-Hal Hospital, 102&103, Station Road, opposite Suchita Business Park, Shival Nagar, Saibaba Nagar, Pant Nagar, Ghatkopar East, Mumbai, Maharashtra 400078",
      "Latitude": 19.0853873,
      "Longitude": 72.9104529,
      "n_type": "Hospital"
    },
    {
      "n_id": 49,
      "n_name": "Sharan Hospital",
      "n_addr": "Sharan Hospital, 101, First floor, Dipti Solitaire, Mahatma Gandhi Rd, above Axis Bank, Bhatwadi, Kapol wadi, Ghatkopar West, Mumbai, Maharashtra 400086",
      "Latitude": 19.0878502,
      "Longitude": 72.9060991,
      "n_type": "Hospital"
    },
    {
      "n_id": 50,
      "n_name": "Sant Muktabai General Hospital",
      "n_addr": "Sant Muktabai General Hospital, 3WX3+9MF, SG Barve Marg, near muktabai hospital, Siddharth Nagar, Barve Nagar, Ghatkopar West, Mumbai, Maharashtra 400084",
      "Latitude": 19.0984458,
      "Longitude": 72.9041824,
      "n_type": "Hospital"
    },
    {
      "n_id": 51,
      "n_name": "Shalya hospital",
      "n_addr": "Shalya hospital, Silver Point, B -502, Mukand Society Rd, Kasturi Park, Maneklal Estate, Ghatkopar West, Mumbai, Maharashtra 400086",
      "Latitude": 19.0878668,
      "Longitude": 72.9027294,
      "n_type": "Hospital"
    },
    {
      "n_id": 52,
      "n_name": "Rajawadi Hospital",
      "n_addr": "Rajawadi Hospital, 3WH2+FFG, Rajawadi Colony, Ghatkopar East, Mumbai, Maharashtra 400077",
      "Latitude": 19.0786829,
      "Longitude": 72.9012076,
      "n_type": "Hospital"
    },
    {
      "n_id": 53,
      "n_name": "JEEVAN JYOT HOSPITAL",
      "n_addr": "JEEVAN JYOT HOSPITAL, 175d, opposite ghatkopar railway station, Ghatkopar West, Mumbai, Maharashtra 400086",
      "Latitude": 19.0854014,
      "Longitude": 72.9067946,
      "n_type": "Hospital"
    },
    {
      "n_id": 54,
      "n_name": "Aarogyada Multi SuperSpeciality Hospital",
      "n_addr": "Aarogyada Multi SuperSpeciality Hospital, Lower, Ground and First Floor, Neelyog Veydaanta, C Wing, Andheri Ghatkopar Link Rd, Ghatkopar, TPS Colony, Nityanand Nagar, Ghatkopar (W, Mumbai, Maharashtra 400086",
      "Latitude": 19.0908365,
      "Longitude": 72.9135388,
      "n_type": "Hospital"
    },
    {
      "n_id": 55,
      "n_name": "H. J. Doshi Ghatkopar Hindu Sabha Hospital",
      "n_addr": "H. J. Doshi Ghatkopar Hindu Sabha Hospital, Address, Shraddhanand Rd, opp. Railway Station, Bhatwadi, Kapol wadi, Ghatkopar West, Mumbai, Maharashtra 400086",
      "Latitude": 19.0850377,
      "Longitude": 72.9062824,
      "n_type": "Hospital"
    },
    {
      "n_id": 56,
      "n_name": "Nagher samaj hospital",
      "n_addr": "Nagher samaj hospital, 40, Shah velani Bhavan, near madhav baug hall, Jagdusha Nagar, Ghatkopar West, Mumbai, Maharashtra 400086",
      "Latitude": 19.0976459,
      "Longitude": 72.9080362,
      "n_type": "Hospital"
    },
    {
      "n_id": 57,
      "n_name": "Abhishek Nursing Home",
      "n_addr": "Abhishek Nursing Home, Jagruti Cooperative Housing Society, Housing Society, near Saraswat Co-op Bank Ltd, near Jagruti Nagar Metro Station, Bhatwadi, Kaju Pada, Ghatkopar West, Mumbai, Maharashtra 400084",
      "Latitude": 19.0801865,
      "Longitude": 72.8969854,
      "n_type": "Hospital"
    },
    {
      "n_id": 58,
      "n_name": "Sona Hospital And Clinic",
      "n_addr": "Sona Hospital And Clinic, 3WW2+57P, Ramchandra B Kadam Marg, Near Shree Siddhi Ganesh Chowk, Bhatwadi, Barve Nagar, Ghatkopar West, Mumbai, Maharashtra 400084",
      "Latitude": 19.0954569,
      "Longitude": 72.9007181,
      "n_type": "Hospital"
    },
    {
      "n_id": 59,
      "n_name": "Samartha Maternity & Multispeciality Hospital- A NABH Certified Hospital - (Dr Abhay K Shirkande & Dr Preeti A Shirkande)",
      "n_addr": "Samartha Maternity & Multispeciality Hospital- A NABH Certified Hospital - (Dr Abhay K Shirkande & Dr Preeti A Shirkande), Premises No. 7,1st Floor, Neelkanth Market CHSL, Plot No. 76 A M. G. Road, Ghatkopar East, Mumbai, Maharashtra 400077",
      "Latitude": 19.0778737,
      "Longitude": 72.9055627,
      "n_type": "Hospital"
    },
    {
      "n_id": 60,
      "n_name": "Pragati Healthcare Hospital",
      "n_addr": "Pragati Healthcare Hospital, 1, Haridwar Apartment Gopal Bhavan, Lal Bahadur Shastri Marg, near Roa Hotel, Ghatkopar West, Mumbai, Maharashtra 400086",
      "Latitude": 19.090761,
      "Longitude": 72.9091844,
      "n_type": "Hospital"
    },
    {
      "n_id": 61,
      "n_name": "Sapna Health Care Centre Pvt Ltd- CoWin Centre Ghatkopar West",
      "n_addr": "Sapna Health Care Centre Pvt Ltd- CoWin Centre Ghatkopar West, Bhaveshwar Plaza, Sapna Healthcare centre, A Wing, Lal Bahadur Shastri Marg, opposite Shreyas Cinema, opp. Shreyas Cinema, Ghatkopar, W, Mumbai, Maharashtra 400086",
      "Latitude": 19.0925675,
      "Longitude": 72.9122583,
      "n_type": "Hospital"
    },
    {
      "n_id": 62,
      "n_name": "Bhagyoday Hospital",
      "n_addr": "Bhagyoday Hospital, Near, A2, Ground Floor, Harekrishna Apartment, Telephone Exchange Rd, Ghatkopar West, Mumbai, Maharashtra 400086",
      "Latitude": 19.0880087,
      "Longitude": 72.9048585,
      "n_type": "Hospital"
    },
    {
      "n_id": 63,
      "n_name": "Noble Plus Hospital",
      "n_addr": "Noble Plus Hospital, 501 Swastik Esplanade Behind Alpana Apartment, Lal Bahadur Shastri Marg, opp. ZYNOVA SHALBY HOSPITAL, Ghatkopar West, Mumbai, Maharashtra 400086",
      "Latitude": 19.0878806,
      "Longitude": 72.9066933,
      "n_type": "Hospital"
    },
    {
      "n_id": 64,
      "n_name": "Supreme Multi Speciality Hospital LLP",
      "n_addr": "Supreme Multi Speciality Hospital LLP, Neelyog veydaanta Bldg, A Wing Ground & First Floor, Andheri - Ghatkopar Rd, Nityanand Nagar, Ghatkopar West, Mumbai, Maharashtra 400086",
      "Latitude": 19.0907818,
      "Longitude": 72.913752,
      "n_type": "Hospital"
    },
    {
      "n_id": 65,
      "n_name": "Aditya Hospital",
      "n_addr": "Aditya Hospital, 1st, Presidential Plaza, Lal Bahadur Shastri Marg, opp. R City Mall, Godrej & Boyce Industry Estate, Ghatkopar West, Mumbai, Maharashtra 400086",
      "Latitude": 19.0986048,
      "Longitude": 72.9175543,
      "n_type": "Hospital"
    },
    {
      "n_id": 66,
      "n_name": "Dr Praful Lokhande’s Shantiniketan Hospital",
      "n_addr": "Dr Praful Lokhande’s Shantiniketan Hospital, Shantiniketan, E-1, Society, Lal Bahadur Shastri Marg, Ghatkopar West, Mumbai, Maharashtra 400086",
      "Latitude": 19.0952355,
      "Longitude": 72.9138524,
      "n_type": "Hospital"
    },
    {
      "n_id": 67,
      "n_name": "Chandrajyoti Hospital",
      "n_addr": "Chandrajyoti Hospital, Old Vikram Apartments, L. B. S Marg, Mukand Society Rd, New Shyam Nagar, Maneklal Estate, Ghatkopar West, Mumbai, Maharashtra 400086",
      "Latitude": 19.0885214,
      "Longitude": 72.9023991,
      "n_type": "Hospital"
    },
    {
      "n_id": 68,
      "n_name": "Pancholi Hospital",
      "n_addr": "Pancholi Hospital, 90 Feet Rd, Sudarshan Society, Garodia Nagar, Ghatkopar East, Mumbai, Maharashtra 400071",
      "Latitude": 19.0741508,
      "Longitude": 72.9058027,
      "n_type": "Hospital"
    },
    {
      "n_id": 69,
      "n_name": "Satyam Hospital",
      "n_addr": "Satyam Hospital, 2nd Floor, C Wing, Bhaveshwar Plaza, Lal Bahadur Shastri Marg, opp. Shreyas Cinema Road, Nityanand Nagar, Ghatkopar West, Mumbai, Maharashtra 400086",
      "Latitude": 19.0927138,
      "Longitude": 72.9123441,
      "n_type": "Hospital"
    },
    {
      "n_id": 70,
      "n_name": "Samadhan Health Care Centre",
      "n_addr": "Samadhan Health Care Centre, 3rd floor 301, Alpana Apartment, Next To Doshiwadi, L.B.S Road, Ghatkopar West, Mumbai, Maharashtra 400086",
      "Latitude": 19.0908063,
      "Longitude": 72.9076669,
      "n_type": "Hospital"
    },
    {
      "n_id": 71,
      "n_name": "Jeevdaya Hospital",
      "n_addr": "Jeevdaya Hospital, 1st Floor, B Wing, Dharmodaya Building, Jivdaya Ln, Ghatkopar West, Mumbai, Maharashtra 400086",
      "Latitude": 19.0978481,
      "Longitude": 72.9029941,
      "n_type": "Hospital"
    },
    {
      "n_id": 72,
      "n_name": "Medico Surgical Clinic & Hospital",
      "n_addr": "Medico Surgical Clinic & Hospital, Wing A, Lal Bahadur Shastri Marg, Bhatwadi, Kapol wadi, Doshi Wadi, Mumbai, Maharashtra 400086",
      "Latitude": 19.0883185,
      "Longitude": 72.9069383,
      "n_type": "Hospital"
    },
    {
      "n_id": 73,
      "n_name": "Care Multispeciality Hospital",
      "n_addr": "Care Multispeciality Hospital, ground floor, New taj apartment, Chirag Nagar, Ghatkopar West, Mumbai, Maharashtra 400086",
      "Latitude": 19.0872487,
      "Longitude": 72.8990215,
      "n_type": "Hospital"
    },
    {
      "n_id": 74,
      "n_name": "Jeevandeep Childern Hospital",
      "n_addr": "Jeevandeep Childern Hospital, 1st Floor, Chandrodaya Building, Corner, Lal Bahadur Shastri Marg, Ghatkopar, Jivdaya Lane, W, Mumbai, Maharashtra 400086",
      "Latitude": 19.0881255,
      "Longitude": 72.9052541,
      "n_type": "Hospital"
    },
    {
      "n_id": 75,
      "n_name": "Vatsal Nicu And Children's Hospital",
      "n_addr": "Vatsal Nicu And Children's Hospital, Station Road, Hingwala Ln, Saibaba Nagar, Pant Nagar, Ghatkopar East, Mumbai, Maharashtra 400077",
      "Latitude": 19.082372,
      "Longitude": 72.9092392,
      "n_type": "Hospital"
    },
    {
      "n_id": 76,
      "n_name": "Navjivan Hospital. M G Road. Ghatkopar East",
      "n_addr": "Navjivan Hospital. M G Road. Ghatkopar East, 3WJ3+QQ7, near RAMJI ASSAR SCHOOL, Rajawadi Colony, Ghatkopar East, Mumbai, Maharashtra 400075",
      "Latitude": 19.0819036,
      "Longitude": 72.9044067,
      "n_type": "Hospital"
    },
    {
      "n_id": 77,
      "n_name": "Dr. Bhaskar Patel's Hospital",
      "n_addr": "Dr. Bhaskar Patel's Hospital, 3WG3+Q3W, Rd Number 7, Vidya Vihar East, Vidyavihar, Mumbai, Maharashtra 400077",
      "Latitude": 19.076975,
      "Longitude": 72.902692,
      "n_type": "Hospital"
    },
    {
      "n_id": 78,
      "n_name": "Navneet Hospital Ghatkopee",
      "n_addr": "Navneet Hospital Ghatkopee,  3WV7+J9, E-48, Garden Ln, near HDFC Bank, Nityanand Nagar, Ghatkopar West, Mumbai, Maharashtra 400086",
      "Latitude": 19.0940888,
      "Longitude": 72.9134572,
      "n_type": "Hospital"
    },
    {
      "n_id": 79,
      "n_name": "Swastik Health Care Centre",
      "n_addr": "Swastik Health Care Centre, 401, Swastik Esplanade Behind Alpana apartment, Lal Bahadur Shastri Marg, Ghatkopar West, Mumbai, Maharashtra 400086",
      "Latitude": 19.0881296,
      "Longitude": 72.9066748,
      "n_type": "Hospital"
    },
    {
      "n_id": 80,
      "n_name": "Navjeevan Hospital Ghatkopar (East)",
      "n_addr": "Navjeevan Hospital Ghatkopar (East), asher school, M G Road, Main Road, near Ramji Ashar Lane, Ghatkopar East, Mumbai, Maharashtra 400077",
      "Latitude": 19.0785988,
      "Longitude": 72.9101456,
      "n_type": "Hospital"
    },
    {
      "n_id": 81,
      "n_name": "Ramabai Thackrey Hospital",
      "n_addr": "Ramabai Thackrey Hospital, 3WH5+J6C, Ghatkopar, Sindhu Wadi, Ghatkopar East, Mumbai, Maharashtra 400077",
      "Latitude": 19.0790502,
      "Longitude": 72.9080095,
      "n_type": "Hospital"
    },
    {
      "n_id": 82,
      "n_name": "Adarsh hospital",
      "n_addr": "Adarsh hospital, Amrut Nagar Rd, Ghatkopar, Kapol wadi, Ghatkopar West, Mumbai, Maharashtra 400060",
      "Latitude": 19.1016295,
      "Longitude": 72.912073,
      "n_type": "Hospital"
    },
    {
      "n_id": 83,
      "n_name": "Tara Neo-Surg. Hospital",
      "n_addr": "Tara Neo-Surg. Hospital, C-5, Satyam Shopping Centre, Mahatma Gandhi Road, Ghatkopar (E), Ghatkopar East, Mumbai, Maharashtra 400077",
      "Latitude": 19.0756919,
      "Longitude": 72.9029647,
      "n_type": "Hospital"
    },
    {
      "n_id": 84,
      "n_name": "Seth V.C Gandhi & M.A. Vora Municipal General Hospital",
      "n_addr": "Seth V.C Gandhi & M.A. Vora Municipal General Hospital, 3, 7th Rd, near Rajawadi Sub Post Office, Chittranjan Nagar, Rajawadi Colony, Ghatkopar East, Mumbai, Maharashtra 400077",
      "Latitude": 19.0793049,
      "Longitude": 72.9016939,
      "n_type": "Hospital"
    },
    {
      "n_id": 85,
      "n_name": "Ghatkopar Metro Station",
      "n_addr": "Ghatkopar Metro Station, Shraddhanand Road-Hirachand Desai Road Ghatkopar (W Near Ghatkopar Railway Station, Mumbai, Maharashtra 400086",
      "Latitude": 19.0867792,
      "Longitude": 72.9080649,
      "n_type": "Metro Station"
    },
    {
      "n_id": 86,
      "n_name": "Ghatkopar Metro Station (East side)",
      "n_addr": "Ghatkopar Metro Station Bridge, 3WP5+785, Pedestrian Opas, Saibaba Nagar, Pant Nagar, Ghatkopar East, Mumbai, Maharashtra 400077",
      "Latitude": 19.0856302,
      "Longitude": 72.9083469,
      "n_type": "Metro Station"
    },
    {
      "n_id": 87,
      "n_name": "Jagruti Nagar Metro Station",
      "n_addr": "Jagruti Nagar, Andheri Ghatkopar Link Rd, near Maneklal Estate, Maneklal Estate, Ghatkopar (W, Mumbai, Maharashtra 400084",
      "Latitude": 19.0924711,
      "Longitude": 72.9018642,
      "n_type": "Metro Station"
    },
    {
      "n_id": 88,
      "n_name": "Jagruti metro station",
      "n_addr": "Jagruti metro station, 3WV2+2HR jagturi metro, Andheri - Ghatkopar Rd, Maneklal Estate, Ghatkopar West, Mumbai, Maharashtra 400086",
      "Latitude": 19.0926136,
      "Longitude": 72.9013846,
      "n_type": "Metro Station"
    },
    {
      "n_id": 89,
      "n_name": "Asalpha Metro Station",
      "n_addr": "Asalpha, Andheri-Ghatkopar Link Road, Ghatkopar (W), Near Maheshwari Temple, Mumbai, Maharashtra 400084",
      "Latitude": 19.0920487,
      "Longitude": 72.911534,
      "n_type": "Metro Station"
    },
    {
      "n_id": 90,
      "n_name": "Asalpha Metro",
      "n_addr": "Asalpha Metro, 3VWV+MPX, Pereira Wadi, Asalpha, Mumbai, Maharashtra 400084",
      "Latitude": 19.0967428,
      "Longitude": 72.8943664,
      "n_type": "Metro Station"
    },
    {
      "n_id": 91,
      "n_name": "Ghatkopar Railway Station",
      "n_addr": "Ghatkopar, 3WP5+7H, Jawahar Rd, Ghatkopar, Saibaba Nagar, Pant Nagar, Ghatkopar East, Mumbai, Maharashtra 400077",
      "Latitude": 19.0857262,
      "Longitude": 72.9089968,
      "n_type": "Railway Station"
    },
    {
      "n_id": 92,
      "n_name": "Vidyavihar Railway Station",
      "n_addr": "Vidyavihar, 3VHW+JW,  Vidyavihar station skywalk, ONGC Colony, Rajawadi Colony, Vidyavihar, Mumbai, Maharashtra 400086",
      "Latitude": 19.079425,
      "Longitude": 72.8970105,
      "n_type": "Railway Station"
    },
    {
      "n_id": 93,
      "n_name": "Kurla Railway Station",
      "n_addr": "Kurla EMU Carshed, 3VFR+VF, Kurla, Mumbai, Maharashtra 400070",
      "Latitude": 19.07464,
      "Longitude": 72.89122,
      "n_type": "Railway Station"
    },
    {
      "n_id": 94,
      "n_name": "Chembur Railway Station",
      "n_addr": "Chembur, 3W62+WM, Prakash Thorat Marg, Chembur West, Chembur Gaothan, Chembur, Mumbai, Maharashtra 400071",
      "Latitude": 19.0623648,
      "Longitude": 72.901708,
      "n_type": "Railway Station"
    }
  ]